[
  {
    "name": "플래티넘 맥주 브루어리",
    "address": "충청남도 예산군 고덕면 상몽산단2길 40",
    "latitude": 36.7969031,
    "longitude": 126.699249
  },
  {
    "name": "플래티넘 크래프트 맥주 브루어리",
    "address": "충청북도 증평군 울어바위길 79-46",
    "latitude": 36.79801202029709,
    "longitude": 127.60509289013571
  },
  {
    "name": "오비맥주 청주 공장 브루어리",
    "address": "충청북도 청주시 서원구 현도면 현도공단로 151",
    "latitude": 36.50339561641616,
    "longitude": 127.41661261586157
  },
  {
    "name": "코리아크래프트비어 브루어리",
    "address": "충청북도 음성군 원남면 원남산단로97",
    "latitude": 36.8896728036825,
    "longitude": 127.68291751614179
  },
  {
    "name": "솔티브루잉컴퍼니",
    "address": "충청북도 제천시 풍양로 108(중앙로1가, 중앙시장상가)",
    "latitude": 37.136879993238395,
    "longitude": 128.2113793113448
  },
  {
    "name": "CHILLHOPS BREWING CO.(칠홉스브루잉코)",
    "address": "충청남도 서산시 동서1로 148-3 1층",
    "latitude": 36.766962450219076,
    "longitude": 126.45456839633007
  },
  {
    "name": "뱅크크릭브루잉",
    "address": "충청북도 제천시 세거리로13길 106",
    "latitude": 37.08016543609568,
    "longitude": 128.1379727323757
  },
  {
    "name": "사일로 브루어리",
    "address": "연동면 청연로 716(연동면)",
    "latitude": 36.56766544297719,
    "longitude": 127.3220390120372
  },
  {
    "name": "농업회사법인 주식회사 스마트브루어리",
    "address": "충청북도 청주시 상당구 미원면 어암1길 213-10",
    "latitude": 36.627173333939425,
    "longitude": 127.7452783423237
  },
  {
    "name": "농업회사법인 공주브루어리",
    "address": "충청남도 공주시 우성면 성곡길 123",
    "latitude": 36.48891985024327,
    "longitude": 127.07064985010024
  },
  {
    "name": "네오아티잔브루어리",
    "address": "충청북도 음성군 원남면 원남산단로 99",
    "latitude": 36.889679331144016,
    "longitude": 127.68334946999431
  },
  {
    "name": "금강브루어리",
    "address": "충청남도 공주시 우성면 성곡길125",
    "latitude": 36.488849841557716,
    "longitude": 127.07093437214814
  },
  {
    "name": "주식회사 안동브루잉컴퍼니",
    "address": "경상북도 안동시 풍산읍 괴정2길 98(풍산읍) 2호",
    "latitude": 36.6034211,
    "longitude": 128.534048
  },
  {
    "name": "다이노 브루잉",
    "address": "경상남도 창원시 진해구 중원로86번길 22-2(화천동, 화천포차타운) 1층 다이노 브루잉",
    "latitude": 35.1515182,
    "longitude": 128.662364
  },
  {
    "name": "주식회사 부산맥주",
    "address": "경상남도 양산시 어실로 485 (어곡동) 1층",
    "latitude": 35.3969874,
    "longitude": 129.005746
  },
  {
    "name": "통영맥주",
    "address": "경상남도 통영시 항북길 53 (정량동) 지하1층, 1층, 2층",
    "latitude": 34.8448554,
    "longitude": 128.429224
  },
  {
    "name": "대경맥주주식회사",
    "address": "대구광역시 달성군 금강로2길 12",
    "latitude": 35.7705412,
    "longitude": 128.425659
  },
  {
    "name": "켈슈브로이맥주",
    "address": "경상남도 양산시 지산로 31",
    "latitude": 35.4957036,
    "longitude": 129.079896
  },
  {
    "name": "주식회사 완벽한인생브루어리",
    "address": "경상남도 남해군 삼동면 독일로 30",
    "latitude": 34.7974313,
    "longitude": 128.043476
  },
  {
    "name": "산청브루어리",
    "address": "경상남도 산청군 단성면 목화로 910 산청브루어리",
    "latitude": 35.2922887,
    "longitude": 127.958824
  },
  {
    "name": "주식회사 가나다라브루어리",
    "address": "경상북도 문경시 문경대로 625-1 1층",
    "latitude": 36.6149237,
    "longitude": 128.156525
  }
]
